,Address,Account..,Account.Name,Title.Owner.Account..,Physical.Loc.Site..,Lat,Lon
1,"25 WEST 2OTH ST - SUITE 1107, New York, NY 10011",1003,ATLANTIS WORLDWIDE LLC,1-1WCVQSZB,542738,40.7405974,-73.992595
2,"125 PARK AVE STE 2615, New York, NY 10017",1003,ATLANTIS WORLDWIDE LLC,1003,542739,40.751632,-73.9776389
3,"161 MADISON AVE RM 9SW, New York, NY 10016",1005113,ACCORD MEDICAL ASSOCIATES,1005113,1287096,40.7467518,-73.9833473
4,"630 W 168TH ST, New York, NY 10032",1008439,COLUMBIA UNIVERSITY,1008439,1690770,40.8409549,-73.941459
5,"177 FORT WASHINGTON AVE, New York, NY 10032",1014624,COLUMBIA UNIVERSITY MEDICAL CENTER MILLSTEIN HOSPITAL BUILDING,1014624,2095100,40.8415651,-73.9430332
6,"1 GUSTAVE L LEVY PL, New York, NY 10029",1018587,ICAHN SCHOOL OF MEDICINE AT MOUNT SINAI,1-1NFW5,4297478,40.7899899,-73.953689
7,"160 E 34TH ST, New York, NY 10016",1025095,NYUMC CANCER CENTER,1-1NFW5,2391597,40.7457525,-73.9787559
8,"70 E 90TH ST, New York, NY 10128",1031903,MATERNAL FETAL MEDICINE PLLC,1031903,1395139,40.7830372,-73.9567642
9,"780 PARK AVE, New York, NY 10021",1041580,JANA KLAUER MD,1041580,1520279,40.7721096,-73.9634009
10,"317 E 34TH ST STE 101, New York, NY 10016",1062062,MURRAY HILL MEDICAL GROUP PC,1062062,1358774,40.7446882,-73.9749319
11,"248 W 26TH ST, New York, NY 10001",1066140,WEST CHELSEA VETERINARY HOSPITAL,1066140,1690607,40.746621,-73.9962459
12,"51 W 51ST ST, New York, NY 10019",1080544,CLIFTON CENTREVILLE ANIMAL CLINIC,1080544,1500416,40.7603402,-73.9790395
13,"1430 2ND AVE RM 101, New York, NY 10021",1111603,PEDRO SEGARRA MD,1111603,1399731,40.7703985,-73.9569483
14,"408 E 76TH ST, New York, NY 10021",1118982,MDD REALTY,1-1NFW5,3166069,40.7700155,-73.9535703
15,"325 W 15TH ST, New York, NY 10011",1119051,APTIUM W NEW YORK INC,129944,1793531,40.7411653,-74.0033708
16,"424 E 92ND ST, New York, NY 10128",1119883,ASPCA ANIMAL HOSPITAL,1119883,1404895,40.7800496,-73.945603
17,"217 GRAND ST, New York, NY 10013",1119913,KENNETH TAM MD,1119913,1703099,40.7186792,-73.9961107
18,"1 W 15TH ST, New York, NY 10011",1131785,VCA FIFTH AVENUE VET SPECIALISTS,966420,1584976,40.736982,-73.993478
19,"213 MADISON AVE STE 1A, New York, NY 10016",1136512,ROSH MATERNAL FETAL MEDICINE PLLC,1136512,1616025,40.7487814,-73.9819932
20,"1120 PARK AVE, New York, NY 10128",1147243,HOWARD SCHIFF MD,1147243,1809847,40.7830459,-73.9556827
21,"316 E 30TH ST FL 2, New York, NY 10016",1150815,CONCORDE MEDICAL GROUP,1150815,1548115,40.7417171,-73.9769371
22,"240 MADISON AVE, New York, NY 10016",1151447,MADISON AVENUE IMAGING LLC,306314,1424811,40.7500295,-73.9816944
23,"215 LEXINGTON AVE  20TH FL, New York, NY 10016",1161275,JED C KAMINETSKY MD PC,1161275,1433707,40.7453305,-73.9801333
24,"65 E 96TH ST, New York, NY 10128",1166022,ALEX S TEPPER MD,1166022,1904267,40.787,-73.9531111
25,"1245 MADISON AVE, New York, NY 10128",1166486,CARNEGIE HILL IMAGING FOR WOMEN PLLC,1166486,1688778,40.7830825,-73.956831
26,"407 E 70TH ST, New York, NY 10021",1169300,LAWRENCE INRA MD,1169300,1496130,40.7663273,-73.9562567
27,"161 FORT WASHINGTON AVE, New York, NY 10032",1186147,NEW YORK PRESBYTERIAN HOSPITAL,1728069,1482201,40.8408017,-73.9433196
28,"400 E 66TH ST, New York, NY 10065",1204790,MANHATTAN DIAGNOSTIC RADIOLOGY,306314,1947085,40.7636573,-73.9586445
29,"300 E 56TH ST, New York, NY 10022",1207652,MANHATTAN SPINE & SPORTS MEDICINE,1207652,1927796,40.758169,-73.965234
30,"150 E 32ND ST, New York, NY 10016",1210631,NYU  UROLOGY ASSOCIATES,318083,1683479,40.7448166,-73.9804195
31,"16 E 60TH ST STE 350, New York, NY 10022",1220030,COLUMBIA DOCTORS MIDTOWN,1220030,1744460,40.7642428,-73.9713743
32,"275 7TH AVE, New York, NY 10001",1222224,UNITE HEALTH CENTER,1038509,1541647,40.7455581,-73.9942245
33,"993 PARK AVE, New York, NY 10028",1228756,MANHATTAN WOMENS HEALTH OB GYN PC,1228756,1707952,40.7785633,-73.957795
34,"108 E 66TH ST STE 1B, New York, NY 10065",1228756,MANHATTAN WOMENS HEALTH OB GYN PC,1228756,1510742,40.7669657,-73.966175
35,"103 E 84TH ST, New York, NY 10028",1236656,NEW YORK OBSTETRICS AND GYNECOLOGY PC,1-1NFW5,1614543,40.7787556,-73.9575194
36,"551 5TH AVE RM 525, New York, NY 10176",1249920,EMPIRE PHYSICAL MEDICINE & PAIN MANAGEMENT,1249920,1529846,40.7553825,-73.9788937
37,"751 2ND AVE, New York, NY 10017",1249928,REMOTE DIAGNOSTIC IMAGING LLC,1249928,1528691,40.7489717,-73.9731472
38,"115 E 67TH ST, New York, NY 10065",1250505,ROBBI KEMPNER MD FACS PC,1-1NFW5,3159451,40.7677517,-73.9653256
39,"410 W 55TH ST, New York, NY 10019",1252184,BLUEPEARL MANHATTAN,1029694,1578432,40.7667959,-73.9876774
40,"330 W 58TH ST STE 613, New York, NY 10019",1258060,REPRODUCTIVE CARE OF NY PC,1258060,5464637,40.7677499,-73.9837835
41,"62 E 88TH ST, New York, NY 10128",1264338,EASTSIDE MEDICAL RADIOLOGY,1264338,1540402,40.7816871,-73.957128
42,"1440 YORK AVE STE P9, New York, NY 10075",1265522,CRAIG W WARSCHAUER MD,1265522,1543202,40.7696022,-73.9513409
43,"1775 YORK AVE OFC 1P, New York, NY 10128",1269392,AMERICAN ACCESS CARE LLC,966667,1784446,40.7801829,-73.9445784
44,"200 RIVERSIDE BLVD STE 15D, New York, NY 10069",1270963,HALEH MILANI MD,1270963,1634993,40.7789994,-73.9879835
45,"1305 YORK AVE, New York, NY 10021",1276771,WEILL CORNELL MEDICAL COLLEGE,1276771,1935311,40.7655912,-73.9551881
46,"139 CENTRE ST STE 307, New York, NY 10013",1284605,CHINATOWN CARDIOLOGY PC,1284605,1555275,40.7174763,-74.0007016
47,"132 BOWERY, New York, NY 10013",1289689,ADVANCED BODY IMAGING ASSOCIATES LLC,1289689,1559300,40.7189282,-73.9948711
48,"1050 5TH AVE, New York, NY 10028",1315032,ELIZABETH A POYNOR MD PLLC,1315032,1919377,40.7816743,-73.9600313
49,"1440 YORK AVE, New York, NY 10075",1317421,KATHY PLESSER MD PLLC,409033,1605180,40.7696022,-73.9513409
50,"128 MOTT ST STE 501, New York, NY 10013",1322888,PORTABLE X RAY OF ARIZONA LLC,1322888,1843602,40.7185156,-73.996455
51,"1123 PARK AVE, New York, NY 10128",1331996,BRASNER & BLUMBERG MD LLP,1331996,1673356,40.782747,-73.9549174
52,"650 1ST AVE, New York, NY 10016",1337752,BALA R SUBRAMANYAM RADIOLOGY,1337752,1692812,40.7457608,-73.971586
53,"139 CENTRE ST STE 703, New York, NY 10013",1343828,CHINA TOWN KIDNEY CARE PLLC,1343828,1698579,40.7174763,-74.0007016
54,"4405 BROADWAY, New York, NY 10040",1348389,BROADWAY MEDICAL & DENTAL,1348389,2232815,40.8551923,-73.9336257
55,"936 5TH AVE, New York, NY 10021",1348398,LAUREN FEIT MD,1348398,1705019,40.7741852,-73.9653944
56,"620 COLUMBUS AVE, New York, NY 10024",1358847,CHEN & MORGAN OBGYN WESTSIDE PLLC,409033,4815637,40.7893854,-73.9703975
57,"240 W 98TH ST APT 1E, New York, NY 10025",1361105,ASTER OB GYN PC,1361105,1687466,40.7959868,-73.9714832
58,"425 E 61ST ST FL 11, New York, NY 10065",1361127,IRIS CANTOR WOMENS HEALTH CENTER,1361127,1733090,40.7606262,-73.9591725
59,"18TH AND 2ND AVE, New York, NY 10003",1363099,NYU HOSPITAL FOR JOINT DISEASE,1363099,1647114,40.734834,-73.9831142
60,"666 GREENWICH ST STE 843, New York, NY 10014",1367319,DORSTEN RADIOLOGY PC,1367319,1732208,40.7320632,-74.0079593
61,"230 W 17TH ST, New York, NY 10011",1378495,CHELSEA IMAGING HOLDINGS LLC,1378495,1669861,40.7409451,-73.9998294
62,"350 5TH AVE STE 3304, New York, NY 10118",1378696,WALTER MIZELL INC,1-1NFW5,3194920,40.7484799,-73.9854245
63,"3340 BROADWAY, New York, NY 10031",1388834,CARDIOLOGY UNLIMITED PC,1388834,1926733,40.8202009,-73.9547024
64,"333 E 34TH ST, New York, NY 10016",1390101,ARTHRITIS & RHEUMATOLOGY ASSOCIATES LLP,1390101,1855677,40.7442929,-73.9740497
65,"8 CHATHAM SQ STE 800, New York, NY 10038",1390500,WUHUA JING MD PHD PC,1-1NFW5,3242030,40.713929,-73.998209
66,"150 W 56TH ST APT 4403, New York, NY 10019",1397172,RON E LEV MD PC,342863,1842700,40.7642846,-73.9796854
67,"425 W 59TH ST FL 10, New York, NY 10019",1397586,HEAD & NECK SURGICAL GROUP LLC,1397586,2582151,40.7700721,-73.9858725
68,"525 E 71ST ST STE 114, New York, NY 10021",1404681,SCOTT RODEO MD,1-1NFW5,3242204,40.7660166,-73.9524453
69,"408 BROADWAY STE 410, New York, NY 10013",1407292,TRIBECCA ONCOLOGY,1407292,1863581,40.7188749,-74.0018494
70,"425 5TH AVE, New York, NY 10016",1410640,GEOFFREY SHER MD PC,2000091,2808239,40.751034,-73.9822454
71,"22 W 21ST ST STE 400, New York, NY 10010",1412556,SPORTS MEDICINE AT CHELSEA PLLC,1412556,1827929,40.7407979,-73.992177
72,"343 W 58TH ST STE 11, New York, NY 10019",1412602,THOMAS M NOVELLA DPM,1412602,1735424,40.7686524,-73.9843465
73,"1192 PARK AVE, New York, NY 10128",1427592,JEFFREY I MECHANICK MD & ELISE M BRETT MD PC,1427592,3041806,40.7853826,-73.9542132
74,"124 W 60TH ST APT 35D, New York, NY 10023",1437344,EXPERT ULTRASOUND DIAGNOSTICS LLC,1437344,1889243,40.7701926,-73.9858118
75,"227 E 56TH ST STE 203, New York, NY 10022",1442500,DOMINICK CANNAVO MD,1442500,1959865,40.7593399,-73.9668179
76,"100 E 77TH ST, New York, NY 10075",145447,LENOX HILL HOSPITAL,1017979,535274,40.7738805,-73.9607736
77,"210 E 64TH STREET, New York, NY 10021",145447,LENOX HILL HOSPITAL,1017979,883617,40.7640691,-73.9633052
78,"462 FIRST AVE, New York, NY 10016",145459,BELLEVUE HOSPITAL CENTER,1115722,1528761,40.7390642,-73.9750139
79,"55 E 86TH ST, New York, NY 10028",145666,EAST SIDE PHYSICIANS,145666,564702,40.7808754,-73.9581853
80,"170 WILLIAM ST, New York, NY 10038",145784,NEW YORK PRESBYTERIAN LOWER MANHATTAN HOSPITAL,1387550,1370090,40.7103592,-74.005103
81,"523 E 72ND STREET, New York, NY 10021",145794,HOSPITAL FOR SPECIAL SURGERY,319222,533026,40.7665605,-73.9523301
82,"540 E 71ST ST, New York, NY 10021",145794,HOSPITAL FOR SPECIAL SURGERY,319222,617887,40.765394,-73.953309
83,"145 E 32ND ST 2ND FL, New York, NY 10016",145797,NEW YORK CARDIAC DIAGNOSTIC CENTER,145797,541678,40.7450633,-73.9800186
84,"425 E 61ST ST, New York, NY 10065",145833,NEW YORK CARDIOLOGY,145833,539807,40.7606262,-73.9591725
85,"32 E 31ST ST, New York, NY 10016",145873,PRECISION HEALTH INC,145873,531165,40.7454434,-73.9837835
86,"20 5TH AVE APT 1A, New York, NY 10011",1461649,LOUIS A KATZ MD,1461649,1788638,40.7328802,-73.996455
87,"180 FT WASHINGTON AVE #9-906, New York, NY 10032",146262,COLUMBIA UNIVERSITY HOSPITAL,1008439,532354,40.8411687,-73.9419685
88,"1136 5TH AVE, New York, NY 10128",146315,SULLUM & ENGELBERTS MD,146315,531663,40.7869137,-73.9561648
89,"211 E 51ST ST, New York, NY 10022",1463630,ROBERT SEGAL MD,1157433,1894404,40.7562131,-73.9695269
90,"185 CANAL ST FRNT 6, New York, NY 10013",146527,SHIEH WEI-YUAN MD,146527,543099,40.7170703,-73.9978039
91,"622 W 168TH ST, New York, NY 10032",146642,COLUMBIA UNIVERSITY,146642,1626868,40.841311,-73.94067
92,"710 W 68TH ST 10TH FL, New York, NY 10022",146642,COLUMBIA UNIVERSITY,146642,535253,40.7779717,-73.9880461
93,"710 W 168TH ST RM 612, New York, NY 10032",146642,COLUMBIA UNIVERSITY,146642,1582322,40.8421954,-73.9429957
94,"710 W 168TH ST, New York, NY 10032",146642,COLUMBIA UNIVERSITY,146642,1332030,40.8421954,-73.9429957
95,"123 LAFAYETTE ST FL 6TH, New York, NY 10013",146774,MANUEL C SY MD PC,146774,527361,40.7186627,-74.0000414
96,"506 LENOX AVE, New York, NY 10037",146809,HARLEM HOSPITAL CENTER,146809,1375915,40.8141114,-73.939827
97,"210 E 64TH ST, New York, NY 10021",146823,MANHATTAN EYE EAR & THROAT HOSPITAL,1017979,535280,40.7640691,-73.9633052
98,"3959 BROADWAY CHN 2-263, New York, NY 10032",147097,COLUMBIA UNIVERSITY IN THE CITY OF NEW YORK,1-1NFW5,1645551,40.8396716,-73.9413798
99,"630 W 168TH ST PH8W RM 864, New York, NY 10032",147097,COLUMBIA UNIVERSITY IN THE CITY OF NEW YORK,147097,1786715,40.8409549,-73.941459
100,"16 E 60TH ST, New York, NY 10022",147143,COLUMBIA UNIVERSITY,1-1WCVQSZB,814441,40.7642428,-73.9713743
101,"21 AUDUBON AVE 2ND FL RM 209, New York, NY 10032",147143,COLUMBIA UNIVERSITY,146642,1831908,40.839408,-73.938839
102,"630 W 168TH ST PH 16-16, New York, NY 10032",147143,COLUMBIA UNIVERSITY,146642,1647567,40.8409379,-73.9413793
103,"1050 RIVERSIDE DR, New York, NY 10032",147143,COLUMBIA UNIVERSITY,147143,1679353,40.8423423,-73.9432579
104,"1790 BROADWAY FL 2, New York, NY 10019",147143,COLUMBIA UNIVERSITY,147143,1637868,40.7667856,-73.9813879
105,"520 E 70TH ST, New York, NY 10021",147226,WEILL MEDICAL COLLEGE OF CORNELL UNIVERSITY,1276771,895818,40.7650903,-73.9537547
106,"505 E 70TH ST, New York, NY 10021",147226,WEILL MEDICAL COLLEGE OF CORNELL UNIVERSITY,147226,540748,40.7656944,-73.9541091
107,"510 E 70TH ST, New York, NY 10021",147226,WEILL MEDICAL COLLEGE OF CORNELL UNIVERSITY,147226,540747,40.7648756,-73.9531198
108,"50 W 58TH ST, New York, NY 10019",157106,HADASSAH MEDICAL RELIEF ASSOCIATION,157106,539893,40.7643899,-73.9759029
109,"5 E 98TH ST, New York, NY 10029",157121,MOUNT SINAI FACULTY PRACTICE,203566,565123,40.7890329,-73.9538459
110,"425 W 59TH ST, New York, NY 10019",157162,MOUNT SINAI WEST,1427665,534295,40.7700721,-73.9858725
111,"1000 10TH AVE STE 10G, New York, NY 10019",157162,MOUNT SINAI WEST,145910,3138559,40.7697168,-73.9868805
112,"445 W 58TH ST, New York, NY 10022",157162,MOUNT SINAI WEST,145910,534290,40.7692822,-73.9865679
113,"1000 10TH AVE, New York, NY 10019",157162,MOUNT SINAI WEST,157162,534289,40.7697168,-73.9868805
114,"40 WALL ST FL 28, New York, NY 10005",1607598,CENEGENICS OF NEW YORK CITY LLC,1607598,2190361,40.7068657,-74.0097069
115,"108 E 96TH ST, New York, NY 10128",1613333,ARTHUR KENNISH MD PHD,1613333,1799210,40.7860718,-73.9520091
116,"1820 MADISON AVE, New York, NY 10035",1616759,MADISON AVENUE RADIOLOGY CENTER,1616759,2706422,40.8016581,-73.9439269
117,"1825 MADISON AVE, New York, NY 10035",1616759,MADISON AVENUE RADIOLOGY CENTER,1616759,1804142,40.8015247,-73.9435056
118,"217 GRAND ST STE 6, New York, NY 10013",1617519,RAYMOND L YUNG MD PC,1617519,2709013,40.7186792,-73.9961107
119,"30 CENTRAL PARK S, New York, NY 10019",1620928,PHYSIOAGE MEDICAL GROUP,1620928,1809554,40.7649517,-73.9750827
120,"343 E 30TH ST, New York, NY 10016",1625036,SARA B KRAMER MD,1625036,1815893,40.742066,-73.975641
121,"131 E 65TH ST, New York, NY 10065",1626253,COMPREHENSIVE GENETICS,1626253,1816936,40.7663282,-73.9657618
122,"55 FIRST AVENUE, New York, NY 10016",162980,NYU MEDICAL CENTER,300427,540636,40.7250367,-73.9875712
123,"110 LAFAYETTE ST FL 3RD, New York, NY 10013",163121,MANHATTAN CARDIAC MEDICAL PC,163121,539724,40.7182131,-74.0009721
124,"70 BOWERY STE 303, New York, NY 10013",1632454,HEART & VASCULAR CARE,1632454,1827417,40.7166951,-73.9962129
125,"230 CENTRAL PARK S, New York, NY 10019",163281,SATWANT DHAMOON MD,163281,903683,40.7673066,-73.9806613
126,"525 E 71ST ST, New York, NY 10021",1639401,BRIAN HALPERN MD,1639401,1843764,40.7660166,-73.9524453
127,"1787 MADISON AVE STE 50C, New York, NY 10035",1657013,MADISON CARDIAC IMAGING,1657013,1845911,40.8009078,-73.9439615
128,"975 PARK AVE, New York, NY 10028",1658585,HANDSPORT SURGERY INSTITUTE,1658585,1848434,40.7779248,-73.958323
129,"343 W 145TH ST, New York, NY 10031",1659430,FELDMAN MEDICAL PC,1659430,1849447,40.8240402,-73.9440217
130,"150 E 32ND ST FL 1, New York, NY 10016",1661383,KIPS BAY GYNECOLOGY LLC,318083,1855191,40.7448166,-73.9804195
131,"15 W 44TH ST FL 10, New York, NY 10036",1665372,NIHON MEDICAL GROUP PC,1665372,1859920,40.755344,-73.9806613
132,"235 E 67TH ST RM 204, New York, NY 10065",1666275,JOAN L KENT MD,409033,3012228,40.7660091,-73.9608026
133,"265 CANAL ST STE 308, New York, NY 10013",1667345,BRYAN OYOUNG MD,1667345,1861825,40.7190671,-74.0008732
134,"106 E 35TH ST, New York, NY 10016",1667610,ACCELERATION MANAGEMENT GROUP,1-1NFW5,1862065,40.7473901,-73.9802947
135,"343 W 58TH ST, New York, NY 10019",1670624,PHILIP A BAUMAN MD,1670624,1868754,40.7686524,-73.9843465
136,"461 PARK AVE S STE 200, New York, NY 10016",1679875,TESSLER DEVELOPMENTS LLC,1679875,1878889,40.7451963,-73.9823169
137,"139 CENTRE ST STE PH102, New York, NY 10013",1680450,ROSH MATERNAL FETAL MEDICINE PLLC,1136512,1880651,40.7174763,-74.0007016
138,"315 MADISON AVE STE 1200, New York, NY 10017",1680793,ALICIA RUSSELL CARTER MD PC,1680793,1880209,40.752517,-73.979196
139,"122 W 70TH ST, New York, NY 10023",1682460,HAMID BEHZADI MD,1682460,1882378,40.7763554,-73.9807038
140,"339 E 28TH ST, New York, NY 10016",1684240,NEW YORK UNIVERSITY LANGONE MEDICAL CENTER,2084560,1884509,40.740482,-73.976652
141,"31ST STREET AND EAST RIVER DR, New York, NY 10016",1684240,NEW YORK UNIVERSITY LANGONE MEDICAL CENTER,698214,1930941,40.7457303,-73.9834765
142,"354 E 76TH ST, New York, NY 10021",1686914,JOSHUA DONIS MD,1686914,1889019,40.7703135,-73.9545806
143,"315 W 57TH ST STE 204, New York, NY 10019",1696176,ST LUKES ROOSEVELT HOSPITAL CENTER,157162,1904482,40.7673801,-73.9837605
144,"33 W 125TH ST, New York, NY 10027",1696195,HEMANT PATEL MD,1696195,1905149,40.8072364,-73.9435021
145,"217 GRAND ST FL 9, New York, NY 10013",1699626,KENNETH C TAM MD FACC PC,1119913,1917704,40.7186802,-73.9960574
146,"180 FORT WASHINGTON AVE # 736, New York, NY 10032",1699811,COLUMBIA UNIVERSITY HARKNESS PAVILION,916025,2162348,40.8411687,-73.9419685
147,"800 2ND AVE RM 815, New York, NY 10017",1702719,NY MIDTOWN OB GYN,1702719,1918776,40.7500553,-73.9716691
148,"26 BLEECKER ST, New York, NY 10012",1705478,PLANNED PARENTHOOD OF NEW YORK CITY INC,1705478,1925071,40.7253719,-73.9936086
149,"380 2ND AVE STE 1000, New York, NY 10010",1707808,GRAMERCY SURGERY CENTER INC,399835,3141273,40.7369813,-73.9813485
150,"10 W 74TH ST APT 1G, New York, NY 10023",1712702,PERSONAL BEST INC,1712702,1937422,40.7776497,-73.9757944
151,"303 E 65TH ST, New York, NY 10065",1714338,MEMORIAL SLOAN KETTERING CANCER CENTER,1727201,4270543,40.7642874,-73.9611883
152,"139 CENTRE ST STE 611, New York, NY 10013",1717422,NG MEDICAL PLLC,1717422,1944471,40.7174763,-74.0007016
153,"430 E 59TH ST, New York, NY 10022",1720554,EAST RIVER MEDICAL IMAGING PC,1720547,1947500,40.7588478,-73.960604
154,"3 E 75TH ST, New York, NY 10021",1720560,EAST RIVER MEDICAL IMAGING PC,1720547,1947502,40.7743448,-73.9648893
155,"170 E 77TH ST, New York, NY 10075",1723817,ADVANCED CARDIOVASCULAR IMAGING PC,872083,1953473,40.7731496,-73.9591955
156,"785 PARK AVE, New York, NY 10021",1726134,JEAN M CHIN MD,301579,1957122,40.7718187,-73.9628676
157,"633 3RD AVE, New York, NY 10017",1727201,MEMORIAL SLOAN KETTERING CANCER CENTER,1727201,1959545,40.7496916,-73.9748302
158,"380 2ND AVE, New York, NY 10010",1727310,GRAMERCY MRI & DIAGNOSTIC RADIOLOGY PC,294023,1959977,40.7368466,-73.9810444
159,"575 LEXINGTON AVE, New York, NY 10022",1727390,WEILL CORNELL MEDICAL COLLEGE OF CORNELL UNIVERSITY,1727390,1960168,40.7570959,-73.9709501
160,"523 E 72ND ST, New York, NY 10021",1728942,BETH E SHUBIN STEIN MD,1728942,1962820,40.7665605,-73.9523301
161,"2315 BROADWAY, New York, NY 10024",1730524,WEILL CORNELL IMAGING AT NEW YORK PRESBYTERIAN,1730524,1966187,40.7870473,-73.9781361
162,"530 E 76TH ST APT 20J, New York, NY 10021",1732991,QIN MEDICAL PC,1732991,1972287,40.7685029,-73.9499885
163,"112 E 61ST ST, New York, NY 10065",1734178,ALEXANDER KULICK MD INTEGRATIVE MEDICAL ASSOCIATE PC,1734178,1974988,40.7637404,-73.9683905
164,"300 E 66TH ST, New York, NY 10065",1737193,EVYLYN H LAUDER BREAST CENTER OF MEMORIAL SLOAN KETTERING CANCER CENTER,1727201,1982811,40.764537,-73.9610322
165,"170 E 77TH ST LOWR LEVEL, New York, NY 10075",1741499,EAST SIDE MEDICAL RADIOLOGY,1741499,1985948,40.773116,-73.95913
166,"5 LISPENARD ST, New York, NY 10013",1744253,TRIBECA SOHO ANIMAL HOSPITAL,1744253,1991392,40.720635,-74.004799
167,"638 COLUMBUS AVE, New York, NY 10024",1744937,MOUNT SINAI MEDICAL CENTER,1744937,1992852,40.7895919,-73.9702175
168,"147 W 15TH ST, New York, NY 10011",1750085,UNION SQUARE IMAGING WEST,1750085,2003127,40.7390377,-73.9980848
169,"3030 BROADWAY, New York, NY 10027",1752535,DODGE PHYSICAL FITNESS CENTER,1752535,2017732,40.810242,-73.9618257
170,"12 E 52ND ST, New York, NY 10022",1756551,SALERNO COMPLEMENTARY MEDICINE PLLC,1756551,2018991,40.7592673,-73.9755419
171,"4448 BROADWAY, New York, NY 10040",1756769,MADISON AVENUE RADIOLOGY CENTER,1616759,2017610,40.8563256,-73.9326594
172,"177 E 87TH ST STE 507, New York, NY 10128",1766396,MOUNT SINAI MANHATTAN HEART,1766396,2090242,40.7799143,-73.9538688
173,"115 E 23RD ST FL 10, New York, NY 10010",1766678,GRAMERCY GYNECOLOGY PC,1766678,2048481,40.7400551,-73.9855281
174,"115 E 67TH ST APT 1A, New York, NY 10065",1771337,ROSH MATERNAL FETAL MEDICINE PLLC,1771337,2078337,40.7677517,-73.9653256
175,"111 JOHN ST STE 1450, New York, NY 10038",1771912,RON E LEV MD PC,1771912,3069396,40.7078278,-74.0056597
176,"1752 PARK AVE, New York, NY 10035",1772527,HENRY J CARTER SPECIALTY HOSPITAL & NURSING FACILITY,1115722,2084930,40.8030845,-73.9412174
177,"700 COLUMBUS AVE, New York, NY 10025",1775288,GOTHAM VETERINARY CENTER PC,1775288,2101461,40.7919838,-73.9686316
178,"210 E 86TH ST FL 9, New York, NY 10028",1778736,ENT & ALLERGY ASSOCIATES LLP,1778736,2108941,40.7782674,-73.9534096
179,"403 E 37TH ST, New York, NY 10016",1782617,RIVERGATE VETERINARY CLINIC PC,1782617,2122604,40.7455983,-73.9716419
180,"330 E 17TH ST, New York, NY 10003",1785583,BETH ISRAEL MEDICAL CENTER,146472,2145360,40.7339541,-73.9828197
181,"107 E 76TH ST, New York, NY 10021",1785775,LENOX HILL HOSPITAL,1017979,2146980,40.773576,-73.961423
182,"150 E 71ST ST, New York, NY 10021",1786257,CENTER FOR HUMAN REPRODUCTION,1017979,2300879,40.7695206,-73.9625705
183,"38 E 32ND ST, New York, NY 10016",1787358,CITYSCAPE OB GYN PLLC,1787358,2162347,40.7460468,-73.9831521
184,"3959 BROADWAY FL 12, New York, NY 10032",1790489,CENTER FOR PRENATAL PEDIATRICS,1790489,2910088,40.8398048,-73.9414011
185,"148 MADISON AVE, New York, NY 10016",1793367,CARNEGIE SOUTH IMAGING FOR WOMEN PLLC,1-1NFW5,2191990,40.746435,-73.984243
186,"912 5TH AVE, New York, NY 10021",1794851,ADAM ROSENBLUTH MD,1794851,2234678,40.7727054,-73.9665194
187,"2360 AMSTERDAM AVE APT M1, New York, NY 10033",1798079,AMSTERDAM MEDICAL PRACTICE PLLC,1798079,2260015,40.8458257,-73.9330889
188,"90 MAIDEN LN STE 300, New York, NY 10038",1798709,NEW YORK PELVIC PAIN & MINIMALLY INVASIVE GYNECOLOGIC SURGERY PC,1798711,3207777,40.7069453,-74.0074731
189,"18 E 41ST ST FL 1, New York, NY 10017",1798711,NEW YORK COMPREHENSIVE WOMENS MEDICAL,1798711,2295215,40.7522079,-73.9804547
190,"57 W 57TH ST STE 1201, New York, NY 10019",1801697,INTEGRATIVE PHYSICAL MEDICINE & REHABILITATION PC,1801697,2258776,40.764358,-73.976474
191,"545 1ST AVE, New York, NY 10016",1802866,NYU SCHOOL OF MEDICINE,146371,2978603,40.7424803,-73.9748761
192,"1470 MADISON AVE, New York, NY 10029",1810276,MOUNT SINAI PRIMARY CARE BLDG,157162,2297435,40.7908231,-73.9518954
193,"1879 MADISON AVE, New York, NY 10035",1823551,COLER GOLDWATER NORTH SPECIALTY HOSPITAL,1115722,2326900,40.8032081,-73.9418144
194,"130 E 77TH ST, New York, NY 10075",1823573,STUART KATCHIS MD PC,1823573,2331615,40.7736644,-73.9602972
195,"240 E 38TH ST, New York, NY 10016",1824174,AMBULATORY CARE CENTER,318083,2342514,40.7473698,-73.9750598
196,"130 W 79TH ST, New York, NY 10024",1829130,LENOX HILL RADIOLOGY & MEDICAL IMAGING ASSOCIATES PC,306314,2687188,40.782281,-73.9768964
197,"1450 MADISON AVE FL 1, New York, NY 10029",1830606,ICAHN SCHOOL OF MEDICINE AT MOUNT SINAI,1830606,2362597,40.7896216,-73.952802
198,"39 E BROADWAY # 307, New York, NY 10002",1836474,ZOE ZHECHUN LIU MD,1836474,2641823,40.5849888,-73.6625427
199,"1790 BROADWAY, New York, NY 10019",1839507,COLUMBIA OB GYN COLUMBUS CIRCLE,1839507,5613778,40.7667856,-73.9813879
200,"755 PARK AVE, New York, NY 10021",1840547,SHEREEN H RUSSELL MD,1840547,2507783,40.7707606,-73.9635577
201,"512 E 71ST ST, New York, NY 10021",1841980,NEW YORK PRESBYTERIAN HOSPITAL,1841980,2426468,40.7658345,-73.9538312
202,"1468 MADISON AVE, New York, NY 10029",1903427,MOUNT SINAI HOSPITAL,203566,4931525,40.7901395,-73.9527524
203,"722 W 168TH ST, New York, NY 10032",1903808,COLUMBIA UNIVERSITY,916025,4387352,40.8427327,-73.9433656
204,"135 SPRING ST FL 2, New York, NY 10012",1910481,SPRING OB GYN PC,1910481,3134084,40.7241218,-74.0005869
205,"353 E 68TH ST, New York, NY 10065",1913106,MEMORIAL SLOAN KETTERING SIDNEY KIMMEL CENTER FOR PROSTATE & UROLOGIC CANCERS,733150,2808961,40.7657272,-73.9582771
206,"3959 BROADWAY, New York, NY 10032",1915062,COLUMBIA UNIVERSITY MEDICAL CENTER,146642,2552728,40.8398048,-73.9414011
207,"355 W 52ND ST, New York, NY 10019",1919622,NYU LANGONE MEDICAL CENTER,1802866,4383340,40.7644888,-73.9869055
208,"16 E 16TH ST, New York, NY 10003",1926837,INSTITUTE FOR FAMILY HEALTH,128009,4260937,40.7367625,-73.9918868
209,"51 W 51ST ST STE 320, New York, NY 10019",1944185,COLUMBIA UNIVERSITY OB GYN MIDTOWN,147097,2688980,40.7603402,-73.9790395
210,"2508 ADAM CLAYTON POWELL JR BLVD, New York, NY 10039",1944383,TINY PORTRAITS UPTOWN,1944383,2589765,40.8221649,-73.9391738
211,"203 W 12TH ST, New York, NY 10011",1947287,LENOX HILL HOSPITAL CENTER,1017979,2607180,40.7377044,-74.0012066
212,"360 E 72ND ST STE A, New York, NY 10021",1955495,BRYAN T KELLY MD,1954581,2636922,40.767784,-73.956509
213,"1790 BROADWAY FL 4, New York, NY 10019",1958072,COLUMBIA UNIVERSITY FERTILITY CENTER,1958072,2653763,40.7667856,-73.9813879
214,"150 AMSTERDAM AVE, New York, NY 10023",1958544,WINTHROP UNIVERSITY HOSPITAL ROBOTIC RADIOSURGERY,146755,2648385,40.7753903,-73.9843344
215,"110 E 40TH ST STE 706, New York, NY 10016",1975950,MIDTOWN PREGNANCY SUPPORT CENTER,916589,2677217,40.7504117,-73.9779983
216,"530 1ST AVE STE 10N, New York, NY 10016",1976848,STEVEN R GOLDSTEIN MD,1976848,2677745,40.7413995,-73.9744151
217,"20 7TH AVE, New York, NY 10011",1978434,CENTER FOR COMPREHENSIVE CARE,1017979,2826269,40.7376886,-74.0008439
218,"1ST AVE AT 16TH ST, New York, NY 10003",1979699,JACOB K GOERTZ MD,1979699,2691031,40.7326656,-73.9815974
219,"115 E 57TH ST STE 1210, New York, NY 10022",1980078,AINSWORTH INSTITUTE OF PAIN MANAGEMENT,1980078,2694765,40.7614887,-73.9699586
220,"210 E 86TH ST RM 402, New York, NY 10028",1980584,KENNETH R MEISLER DPM,1980584,2699832,40.7782674,-73.9534096
221,"40 E 84TH ST, New York, NY 10028",1981653,UPPER EAST SIDE GYNECOLOGY,1981653,2701522,40.7792668,-73.9596101
222,"217 GRAND ST STE 401, New York, NY 10013",1982572,GEORGE C HALL MD PC,907780,2703317,40.7186792,-73.9961107
223,"1421 3RD AVE, New York, NY 10028",1983367,ROSETTA RADIOLOGY PLLC,1983367,2705634,40.7752137,-73.9563485
224,"120 E 86TH ST, New York, NY 10028",1984771,LENOX HILL RADIOLOGY ASSOCIATES PC,306314,3076384,40.7795786,-73.9563152
225,"155 W 19TH ST FL 4, New York, NY 10011",1986096,BISHER AKIL MD,1986096,2718718,40.7415317,-73.9966157
226,"110 E 59TH ST STE 8A, New York, NY 10022",1987371,LENOX HILL HEART & VASCULAR INSTITUTE,1402062,4262009,40.7623427,-73.9694002
227,"21 AUDUBON AVE, New York, NY 10032",1991385,AMBULATORY CARE NETWORK,146642,2746660,40.839408,-73.938839
228,"133 E 58TH ST STE 1002, New York, NY 10022",1991745,INTERMED CARE PC,1991745,2749937,40.7619525,-73.9689326
229,"123 W 79TH ST, New York, NY 10024",1992349,NEWAY FERTILITY,1992349,2755488,40.7825399,-73.9761388
230,"40 WORTH ST, New York, NY 10013",1993029,WEILL CORNELL MEDICAL COLLEGE,1993029,2841314,40.7171363,-74.006901
231,"462 1ST AVE STE 7N3, New York, NY 10016",1995041,NYU SLEEP DISORDERS CENTER,698214,2773506,40.7390642,-73.9750139
232,"110 E 59TH ST RM 10A, New York, NY 10022",1995654,NEW YORK HEAD & NECK NSTITUTE,145447,2782150,40.7623427,-73.9694002
233,"800 2ND AVE, New York, NY 10017",1997486,MID MANHATTAN PHYSICIAN SERVICES PC,1997486,2786569,40.7499108,-73.9717539
234,"594 BROADWAY STE 1011, New York, NY 10012",1999444,REPRODUCTIVE MEDICINE ASSOCIATES OF NEW YORK LLP,1999444,4280365,40.7248688,-73.9968682
235,"156 WILLIAM ST, New York, NY 10038",2002342,WEILL CORNELL MEDICAL COLLEGE,1237797,2826112,40.7100617,-74.0056138
236,"219 W 12TH ST, New York, NY 10011",2002543,LENOX HEALTH GREENWICH VILLAGE,1017979,2834244,40.737625,-74.0015423
237,"30 7TH AVE S, New York, NY 10014",2002543,LENOX HEALTH GREENWICH VILLAGE,145447,3072494,40.7304873,-74.0047863
238,"51 SAINT NICHOLAS AVE, New York, NY 10026",2004385,HARLEM RHEUMATOLOGY LLC,907780,2857290,40.8004808,-73.9528586
239,"251 5TH AVE FL 3, New York, NY 10016",2009220,SYLVIA HESSE MD PC,2009220,2892572,40.7446487,-73.9869592
240,"200 W 57TH ST STE 610, New York, NY 10019",2009376,VALLEY PHYSICIANS SERVICES,295880,2892638,40.7655892,-73.9806247
241,"425 5TH AVE FL 3, New York, NY 10016",2013534,LIBERA MEDICAL PLLC,2013534,2920704,40.751034,-73.9822454
242,"215 E 95TH ST STE C, New York, NY 10128",2022737,WESTSIDE RADIOLOGY ASSOCIATES PC,306314,2941644,40.7844236,-73.9485762
243,"333 E 38TH ST, New York, NY 10016",2022895,NYU CENTER FOR MUSCULOSKELETAL CARE,2022895,2946744,40.7466496,-73.9718916
244,"200 W 57TH ST STE 1104, New York, NY 10019",2024562,WALK IN GYN CARE PC,2024562,2980128,40.7655892,-73.9806247
245,"62 E 88TH ST FL 2, New York, NY 10128",2028930,CARNEGIE HILL OB GYN PLLC,2028930,2980617,40.7816871,-73.957128
246,"161 FORT WASHINGTON AVE FL 4, New York, NY 10032",2033308,COLUMBIA OB GYN UPTOWN,2033308,3046767,40.8408017,-73.9433196
247,"4781 BROADWAY, New York, NY 10034",2034931,BROADWAY PRACTICE,2034931,3018765,40.866165,-73.926371
248,"55 5TH AVE, New York, NY 10003",203544,MEMORIAL SLOAN KETTERING CANCER CENTER,296042,541695,40.7346278,-73.9942558
249,"1 GUSTAVE L LEVY PLACE, New York, NY 10029",203566,MOUNT SINAI HOSPITAL,145729,901584,40.7899899,-73.953689
250,"5141 BROADWAY, New York, NY 10034",203606,PRESBYTERIAN HOSPITAL,343010,535256,40.8733431,-73.9130361
251,"137 E 36TH ST, New York, NY 10016",2036518,PL CHANG MD PC,2036518,3041294,40.7477912,-73.9784345
252,"301 E 17TH ST, New York, NY 10003",203688,HOSPITAL FOR JOINT DISEASES,203688,535241,40.7343466,-73.98298
253,"18TH ST AND SECOND AVE, New York, NY 10003",203688,HOSPITAL FOR JOINT DISEASES,203688,1557532,40.7348632,-73.9828159
254,"911 PARK AVE, New York, NY 10075",2037086,MANHATTAN FAMILY PRACTICE,2037086,3048929,40.77598,-73.9598383
255,"420 E 76TH ST, New York, NY 10021",203759,GRACIE SQUARE HOSPITAL,203759,534330,40.7697347,-73.9530882
256,"1230 YORK AVENUE, New York, NY 10021",203783,ROCKEFELLER UNIVERSITY HOSPITAL,203783,535265,40.7632352,-73.9559157
257,"227 MADISON ST, New York, NY 10002",203789,GOUVERNEUR HOSPITAL,203789,562922,40.7131072,-73.9877319
258,"4 COLUMBUS CIR FL 4, New York, NY 10019",2038090,ZHANG MEDICAL PC,2038090,3040300,40.767388,-73.9828652
259,"4334 BROADWAY, New York, NY 10033",2062408,WASHINGTON HEIGHTS IMAGING,2062408,3059898,40.852476,-73.9342996
260,"5 E 98TH ST FL 2, New York, NY 10029",2063820,ICAHN SCHOOL OF MEDICIINE AT MOUNT SINAI,1018587,3069219,40.7890329,-73.9538459
261,"245 E 84TH ST, New York, NY 10028",2065566,LENOX HILL RADIOLOGY,306314,3078278,40.7769808,-73.9531168
262,"644 W 168TH ST, New York, NY 10032",2065844,NEW YORK PRESBYTERIAN HOSPITAL,2065844,3080257,40.8415663,-73.9417167
263,"413 E 69TH ST, New York, NY 10021",2066434,WEILL CORNELL MEDICAL COLLEGE,147226,3084856,40.7655971,-73.9561419
264,"435 E 67TH ST, New York, NY 10065",2066899,MEMORIAL SLOAN KETTERING HOSPITAL SHIPPING & RECEIVING,1727201,3087262,40.7643195,-73.9571928
265,"196 CANAL ST 4TH FLR, New York, NY 10013",2067592,EASTERN NEUROLOGIC SERVICES PC,306986,3090929,40.716674,-73.998314
266,"1250 1ST AVE, New York, NY 10065",2068853,MEMORIAL SLOAN KETTERING CANCER CENTER,2068853,3096098,40.764793,-73.957778
267,"116 CENTRAL PARK S STE 7, New York, NY 10019",2069330,DELE MICHAEL CARDIOVASCULAR MEDICINE,906278,3102278,40.7657598,-73.9772407
268,"20 E 46TH ST, New York, NY 10017",2069972,FRANCESCO ROTATORI MD,2069972,3101357,40.7554465,-73.9778211
269,"147 E 26TH ST, New York, NY 10010",2071302,MOUNT SINAI BETH ISRAEL,296045,3108597,40.7412333,-73.9824061
270,"115 E 57TH ST STE 1240, New York, NY 10022",2072157,LASZLO RETSAGI MD,147143,3113123,40.7614887,-73.9699586
271,"215 E 95TH ST, New York, NY 10128",2072300,ADVANTAGE CARE PHYSICIANS,306314,3114101,40.7844236,-73.9485762
272,"530 E 70TH ST, New York, NY 10021",2073603,WEILL CORNELL MEDICAL COLLEGE,1-1NFW5,3139215,40.7648493,-73.9530566
273,"45 E END AVE, New York, NY 10028",2073861,NORMAN M MAGID MD,146718,3125498,40.77172,-73.9467052
274,"110 E 40TH ST RM 801, New York, NY 10016",2074065,ROSH MATERNAL FETAL MEDICINE,2074065,3139896,40.7503568,-73.9780383
275,"160 WATER ST FL 3, New York, NY 10038",2074474,METROPLUS HEALTH PLAN,2074474,3127673,40.7066957,-74.0057358
276,"40 PARK AVE, New York, NY 10016",2079203,MARIA TULPAN MD,2079203,3149251,40.7486896,-73.9806843
277,"352 7TH AVE RM 1003, New York, NY 10001",2082349,HILLEL Y MARANS MD,2082349,3201218,40.7483581,-73.9930347
278,"75 8TH AVE, New York, NY 10014",2083767,WEST VILLAGE VETERINARY HOSPITAL,1744253,3171391,40.7396248,-74.003043
279,"650 1ST AVE FL 7, New York, NY 10016",2084560,NEW YORK UNIVERSITY LANGONE MEDICAL CENTER,698214,4452614,40.7457608,-73.971586
280,"4290 BROADWAY STE 2S, New York, NY 10033",2087561,FELDMAN MEDICAL PC,1-1NFW5,3194316,40.8511451,-73.9350213
281,"425 5TH AVE RM 602, New York, NY 10016",2087731,INTEGRAMED MEDICAL PLLC,2087731,3221613,40.751034,-73.9822454
282,"3867 BROADWAY, New York, NY 10032",2088459,CARDIOLOGY A2Z PLLC,2088459,3199870,40.8368527,-73.943259
283,"433 1ST AVE, New York, NY 10010",2088865,NEW YORK UNIVERSITY,2078830,3234813,40.7386834,-73.9777688
284,"428 E 72ND ST STE 200, New York, NY 10021",2090203,WEILL CORNELL OB GYN FACULTY PRACTICE,147226,3212356,40.7669632,-73.954769
285,"1041 3RD AVE, New York, NY 10065",2090313,DAVID FOX MD,2090313,3213315,40.762994,-73.965208
286,"425 E 61ST ST FL 12, New York, NY 10065",2091151,IRIS CANTOR MENS HEALTH CENTER,296043,3218876,40.7606262,-73.9591725
287,"275 7TH AVE FL 2, New York, NY 10001",2092957,ANASTASIOS MANESSIS MD,2092957,3230323,40.7455581,-73.9942245
288,"233 BROADWAY STE 2750, New York, NY 10279",2106404,HJLM MEDICAL ASSOCIATES PC,2106404,3238091,40.7126253,-74.0082107
289,"1841 BROADWAY, New York, NY 10023",2106688,ALL WOMENS MEDICAL OFFICE BASED SURGERY PLLC,2106688,3242660,40.7692804,-73.9825617
290,"110 E 40TH ST RM 800, New York, NY 10016",2108108,KHOURY MEDICAL CARE PC,2108108,3247012,40.7503568,-73.9780383
291,"103 E 75TH ST, New York, NY 10021",2108848,SHIRA B EYTAN MD,2108848,3260054,40.772949,-73.9615832
292,"128 MOTT ST STE 608, New York, NY 10013",2111001,JAMES LI MD PLLC,2111001,3264558,40.7185156,-73.996455
293,"1090 AMSTERDAM AVE, New York, NY 10025",2115749,MORNINGSIDE RADIOLOGY,306314,3290946,40.8054543,-73.9624787
294,"306 E 59TH ST, New York, NY 10022",2116257,HUMANE SOCIETY OF NEW YORK,2116257,4667934,40.7601249,-73.9639251
295,"215 E 85TH ST, New York, NY 10028",2116641,WEILL CORNELL MEDICAL ASSOCIATES,1712055,3297658,40.7780396,-73.9535703
296,"7 PENN PLZ STE 618, New York, NY 10001",2122972,2001 MARCUS AVENUE LLC,1040493,3319731,40.7489362,-73.992482
297,"428 E 72ND ST STE 100, New York, NY 10021",2124319,NEW YORK PRESBYTERIAN ENT,296043,3329331,40.7669632,-73.954769
298,"234 E 85TH ST FL 3, New York, NY 10028",2652267,MOUNT SINAI DOCTORS,1018587,4260000,40.7772658,-73.9529718
299,"145 E 32ND ST STE 303, New York, NY 10016",2662589,COMPREHENSIVE PAIN & WELLNESS CENTER,2662589,4246513,40.7450633,-73.9800186
300,"220 E 69TH ST, New York, NY 10021",2666337,LENOX HILL OB GYN,1017979,4267488,40.7672827,-73.961305
301,"810 7TH AVE FL 21, New York, NY 10019",2667164,COLORADO CENTER FOR REPRODUCTIVE MEDICINE,1-1NFW5,4270198,40.762838,-73.9824649
302,"20 E 46TH ST STE 202, New York, NY 10017",2667228,NEENA AGARWALA MD PC,2667228,4271241,40.7554465,-73.9778211
303,"281 BROADWAY, New York, NY 10007",2668238,HUDSON SPINE & PAIN MEDICINE PC,306314,4352833,40.714579,-74.0064529
304,"800A 5TH AVE STE 206, New York, NY 10065",2670367,MANHATTAN CARDIOVASCULAR CARE,2670367,4277438,40.7657067,-73.9715702
305,"335 1ST AVE, New York, NY 10003",2670888,WHOLE HEALTH VETERINARY HOSPITAL & DENTAL CLINIC,2670888,4277442,40.734811,-73.98041
306,"257 W 18TH ST, New York, NY 10011",2677225,HEART OF CHELSEA ANIMAL HOSPITAL,2677225,4290416,40.7421939,-74.0001966
307,"5041 BROADWAY FL 2, New York, NY 10034",2677771,MEDALLIANCE MEDICAL HEALTH SERVICES,1157433,4290671,40.8699334,-73.9161841
308,"635 MADISON AVE, New York, NY 10022",268147,NEW YORK PHYSICIANS PC,268147,532654,40.7637152,-73.9709963
309,"590 5TH AVE, New York, NY 10036",2690056,COLUMBIA DOCTORS,916025,4297319,40.7571637,-73.9786641
310,"115 E 57TH ST STE 420, New York, NY 10022",2692128,GLOBAL FERTILITY & GENETICS INC,2692128,4301737,40.7614887,-73.9699586
311,"565 MANHATTAN AVE, New York, NY 10027",2693999,RYAN ADAIR COMMUNITY HEALTH CENTER,306314,4305982,40.8098134,-73.9536851
312,"853 BROADWAY STE 1516, New York, NY 10003",269900,AMERICAN HEALTHCARE TECH,269900,534406,40.7346439,-73.9910605
313,"115 E 57TH ST, New York, NY 10022",2706250,PHYSCIAN HEALTH & WELLNESS,2706250,4328359,40.7614887,-73.9699586
314,"70 E 55TH ST, New York, NY 10022",2708683,PERFORMANCE HEALTH,2708683,4332822,40.7603869,-73.9725574
315,"200 W 57TH ST STE 1101, New York, NY 10019",2709284,JOSHUA U KLEIN MD PC,2121342,4329638,40.7655892,-73.9806247
316,"110 E 59TH ST STE 8B, New York, NY 10022",2711150,LEONID PORETSKY MD,2711150,4332313,40.7623427,-73.9694002
317,"215 E 68TH ST, New York, NY 10065",2711353,WEILL CORNELL MEDICAL ASSOCIATES,2711353,4341256,40.7667304,-73.9610438
318,"115 E 57TH ST STE 510, New York, NY 10022",2714050,ELLEN MELLOW MD,1426537,4338922,40.7614887,-73.9699586
319,"16 PARK PL, New York, NY 10007",2715243,HIGHLINE ORTHOPAEDICS PLLC,306314,5325513,40.7128021,-74.0083003
320,"150 E 32ND ST STE 101, New York, NY 10016",2715567,NYU SCHOOL OF MEDICINE,1802866,4341729,40.7448166,-73.9804195
321,"568 BROADWAY STE 304, New York, NY 10012",2717819,DOWNTOWN WOMEN OB GYN ASSOCIATES LLP,2717819,4343851,40.7242579,-73.9971896
322,"3 E 69TH ST APT 1A, New York, NY 10021",2728257,GREGORY SHIFRIN OB GYN PC,409033,4375638,40.7702801,-73.9675066
323,"110 E 59TH ST STE 10D, New York, NY 10022",2731162,NORTHWELL HEALTH PHYSICIAN PARTNERS FERTILITY AT LENOX HILL,1017979,4396513,40.7623427,-73.9694002
324,"430 W BROADWAY FL 2, New York, NY 10012",2732100,SOHO GYNECOLOGY,2732100,4376437,40.7254746,-74.0014132
325,"104 HAVEN AVE, New York, NY 10032",2735652,COLUMBIA UNIVERSITY,146642,4381266,40.8449942,-73.9425802
326,"352 7TH AVE STE 805, New York, NY 10001",2739336,GRAMERCY GYNECOLOGY PC,2739336,4401650,40.7483581,-73.9930347
327,"15 E 40TH ST STE 101, New York, NY 10016",2741327,SAINT PETERS PHYSICIAN ASSOCIATES,296047,4393074,40.7519347,-73.9805695
328,"225 BROADWAY STE 901, New York, NY 10007",2745053,JOHN WIRTH MD,409033,4420045,40.711964,-74.0085268
329,"120 E 65TH ST, New York, NY 10065",2745062,NANCY LEBOWITZ MD,409033,4412351,40.7661219,-73.9662783
330,"1707 3RD AVE, New York, NY 10128",2748681,CARNEGIE HILL VETERINARIANS,2748681,4411303,40.7848313,-73.9492538
331,"30 E 60TH ST STE 808, New York, NY 10022",2751216,ELENA MARIA BURUIANA MD FACOG,409033,4425822,40.763736,-73.9701927
332,"1233 2ND AVE, New York, NY 10065",2752522,HSS ASC OF MANHATTAN LLC,1111603,4477247,40.7641404,-73.9621146
333,"440 W 114TH ST, New York, NY 10025",2753613,MOUNT SINAI ST LUKES,343187,4441773,40.8051916,-73.9615196
334,"20 E 46TH ST STE 403, New York, NY 10017",2757899,SUZANNE I PASTORE MD,296045,4435679,40.7554465,-73.9778211
335,"53 BEEKMAN ST, New York, NY 10038",2758455,WEILL CORNELL MEDICAL IMAGING,1-1NFW5,4435862,40.7098135,-74.0053613
336,"1283 YORK AVE, New York, NY 10065",2758687,NEW YORK PRESBYTERIAN DAVID H KOCH CENTER,1-1NFW5,4436018,40.7648807,-73.9558789
337,"12 E 97TH STE 1C, New York, NY 10029",2758924,HUA CHEN MD,1705295,4436910,40.7880445,-73.9544887
338,"4120 BROADWAY, New York, NY 10033",2767768,MID ROCKLAND IMAGING PARTNERS INC,409033,4461331,40.8455888,-73.9383573
339,"200 W 57TH ST STE 1300, New York, NY 10019",2772515,MOUNT SINAI WEST OB GYN,2772515,4471823,40.7655892,-73.9806247
340,"369 LEXINGTON AVE STE 18A, New York, NY 10017",2774452,RONALD LEV MD,2774452,4476724,40.750576,-73.9764372
341,"530 E 74TH ST, New York, NY 10021",2774761,MEMORIAL SLOAN KETTERING DAVID H KOCH CENTER FOR CANCER CARE,1727201,4478362,40.7676625,-73.950861
342,"1264 SAINT NICHOLAS AVE, New York, NY 10033",2775200,USA VEIN CLINICS,2060544,5601694,40.8442832,-73.9370552
343,"55 E 34TH ST, New York, NY 10016",2780873,MOUNT SINAI BETH ISRAEL MEDICAL GROUP,296045,4488162,40.747627,-73.9817633
344,"115 E 57TH ST STE 500, New York, NY 10022",2785279,GENERATION NEXT FERTILITY PLLC,409033,4508319,40.7614887,-73.9699586
345,"10 NATHAN D PERLMAN PL, New York, NY 10003",2788589,MOUNT SINAI BETH ISRAEL,296045,4508223,40.7328953,-73.9833282
346,"403 E 34TH ST, New York, NY 10016",2800024,DIVISION OF ENVIRONMENTAL PEDIATRICS,1802866,4559515,40.743468,-73.9722182
347,"424 E 89TH ST, New York, NY 10128",2800332,EAST RIVER MEDICAL IMAGING PC,293306,4531010,40.7781919,-73.9470496
348,"1625 3RD AVE STE LL, New York, NY 10128",2801767,MANHATTAN FERTILITY SERVICES,409033,4537526,40.7821239,-73.9508088
349,"261 5TH AVE STE 901, New York, NY 10016",2815143,ENT & ALLERGY ASSOCIATES LLP,1129619,4599596,40.7449852,-73.9865382
350,"10 UNION SQ E, New York, NY 10003",2823479,INSTITUTE FOR HEAD NECK & THYROID CANCER,2079213,4652685,40.734866,-73.9896604
351,"215 E 68TH ST STE 7, New York, NY 10065",2831527,WEILL CORNELL MEDICINE CENTER OF REPRODUCTIVE MEDICINE,409033,4704980,40.7667304,-73.9610438
352,"255 GREENWICH ST, New York, NY 10007",2831528,WEILL CORNELL MEDICINE CENTER OF REPRODUCTIVE MEDICINE,1727390,4704982,40.7143876,-74.011279
353,"60 W 68TH ST STE 1A, New York, NY 10023",2846305,GILA AARON MD PC,409033,4824516,40.7743276,-73.9801104
354,"146 W 29TH ST STE 12E, New York, NY 10001",2847366,YANTRA ENDOCRINOLOGY WELLNESS PC,409033,5073573,40.7473985,-73.9920475
355,"7 7TH AVE, New York, NY 10011",2872241,NORTHWELL HEALTH,1017979,5388621,40.7368627,-74.0008917
356,"111 BROADWAY RM 1405, New York, NY 10006",2880909,KHOURY MEDICAL CARE PC,2108108,5459559,40.7086056,-74.0113911
357,"157 E 81ST ST, New York, NY 10028",2882870,POYNOR HEALTH,409033,5506629,40.7761443,-73.9570602
358,"1153 1ST AVE, New York, NY 10065",2889782,USA VEIN CLINICS,1937529,5617535,40.7622948,-73.9602689
359,"1990A LEXINGTON AVE, New York, NY 10035",2891070,STARRETT PODIATRY,2891070,5506315,40.802115,-73.939343
360,"485 MADISON AVE, New York, NY 10022",2893604,ADAM B COHEN MD,2893604,5593564,40.758952,-73.9745917
361,"226 W 14TH ST, New York, NY 10011",2898036,MOUNT SINAI DOCTORS,296045,5589225,40.7389381,-74.0012357
362,"210 E 73RD ST, New York, NY 10021",2898084,NORTHWELL PHYSICIAN GROUP,146770,5586554,40.76986,-73.9593359
363,"330 W 58TH ST STE 414, New York, NY 10019",2899345,BODHI MEDICAL GROUP MANHATTAN MIDTOWN,2899344,5601576,40.7677499,-73.9837835
364,"202 E 70TH ST, New York, NY 10021",290012,REGENCY MRI PC,290012,892940,40.7680904,-73.9611772
365,"212 CANAL ST, New York, NY 10013",290157,CANAL RADIOLOGY ASSOCIATES,290157,436100,40.7170555,-73.9990283
366,"1 E 82ND ST, New York, NY 10028",290424,NEW YORK MEDICAL IMAGING ASSOCIATES PC,290424,436991,40.7789438,-73.9622673
367,"165 E 84TH ST FL 6, New York, NY 10028",290424,NEW YORK MEDICAL IMAGING ASSOCIATES PC,290424,436994,40.778032,-73.9555919
368,"61 E 77TH ST, New York, NY 10075",291040,LENOX HILL RADIOLOGY & MEDICAL IMAGING ASSOCIATES,291040,438925,40.7749467,-73.9622031
369,"150 E 61ST ST, New York, NY 10065",291494,EAST SIDE CARDIAC IMAGING,291494,440386,40.7632018,-73.9669387
370,"184 E 70TH ST STE B1, New York, NY 10021",291582,EAST SIDE MED & CARDIOVASCULAR,291582,440668,40.7684367,-73.9620319
371,"201 E 19TH ST, New York, NY 10003",292040,GRAMERCY RADIOLOGY GROUP PC,292040,442678,40.7363467,-73.9843658
372,"345 E 37TH ST RM 311, New York, NY 10016",292983,CORINTHIAN OB GYN PC,1702719,445874,40.7463691,-73.9731773
373,"523 EAST 72ND STREET, New York, NY 10021",293306,EAST RIVER MEDICAL IMAGING PC,1720547,447002,40.7665605,-73.9523301
374,"519 E 72ND ST STE 103, New York, NY 10021",293306,EAST RIVER MEDICAL IMAGING PC,1720547,640836,40.7667349,-73.9526466
375,"1051 RIVERSIDE DR, New York, NY 10032",294030,NEW YORK STATE PSYCH INSTITUTE,294030,450319,40.8426267,-73.9445555
376,"1185 PARK AVE, New York, NY 10128",295792,REICHSTEIN MD,295792,457376,40.7847265,-73.9534342
377,"525 E 68TH ST, New York, NY 10065",295979,WEILL CORNEL MEDICAL COLLEGE,1237797,458010,40.7646404,-73.9540279
378,"1901 1ST AVE, New York, NY 10029",296032,METROPOLITAN HOSPITAL CENTER,1115722,458215,40.7852328,-73.945029
379,"170 E END AVE, New York, NY 10128",296035,BETH ISRAEL MEDICAL CENTER S,296045,458240,40.7760618,-73.9443862
380,"310 E 14TH ST, New York, NY 10003",296038,NEW YORK EYE & EAR INFIRMARY,296038,458257,40.7319493,-73.9845869
381,"423 E 23RD ST, New York, NY 10010",296040,VA NY HARBOR HEALTHCARE SYSTEM MANHATTAN CAMPUS,131626,458267,40.7371823,-73.9767127
382,"423 EAST 23RD STREET, New York, NY 10010",296040,VA NY HARBOR HEALTHCARE SYSTEM MANHATTAN CAMPUS,2665224,458266,40.7371823,-73.9767127
383,"153 W 11TH ST, New York, NY 10011",296041,ST VINCENTS HOSPITAL,296041,1262087,40.736471,-74.0006227
384,"1275 YORK AVE, New York, NY 10065",296042,MEMORIAL SLOAN KETTERING CANCER CENTER,1727201,458277,40.7640832,-73.956027
385,"411 E 67TH ST, New York, NY 10065",296042,MEMORIAL SLOAN KETTERING CANCER CENTER,1727201,458281,40.7645597,-73.9579285
386,"411 E 67TH ST, New York, NY 10021",296042,MEMORIAL SLOAN KETTERING CANCER CENTER,1727201,1286026,40.7645597,-73.9579285
387,"15TH ST 1ST AVE AND 2ND AVE, New York, NY 10003",296045,MOUNT SINAI BETH ISRAEL,1018587,1711701,40.7363481,-73.991872
388,"7 IRVING PL, New York, NY 10003",296045,MOUNT SINAI BETH ISRAEL,296045,835832,40.7342396,-73.9885767
389,"342 E 49TH ST, New York, NY 10017",297001,BEEKMAN RADIOLOGY PLLC,297001,462080,40.7533463,-73.9674121
390,"133 E 58TH ST, New York, NY 10022",297139,PAYNE DAVID R MD,297139,462480,40.7619525,-73.9689326
391,"55 E 124TH ST, New York, NY 10035",297589,FOOT CLINICS OF NEW YORK,297589,463805,40.8049586,-73.940299
392,"420 E 72ND ST, New York, NY 10021",297864,ORTHOPEDIC SURGERY SPECIA,297864,464607,40.7672544,-73.9553153
393,"4588 BROADWAY, New York, NY 10040",297869,REGIONAL RADIOLOGY,297869,464639,40.8603415,-73.9308121
394,"5 CHATHAM SQ, New York, NY 10038",297879,CHATHAM SQUARE MGT INC,297879,464651,40.7139002,-73.9983603
395,"62 E 88TH ST STE 201, New York, NY 10128",297880,LIFE STEPS OBGYN,297880,464654,40.7816871,-73.957128
396,"109 LAFAYETTE ST RM 701, New York, NY 10013",297882,CHIANG EUGENE MD,297882,464660,40.7179262,-74.0005942
397,"145 E 32ND STREET SUITE 303, New York, NY 10016",297996,MANHATTAN INTERNAL MEDICINE ASSOCIATES PC,1157433,464990,40.7450633,-73.9800186
398,"171 E END AVE, New York, NY 10128",298403,SCOTT NORMAN MD,298403,466194,40.7749004,-73.9448164
399,"201 E 65TH ST, New York, NY 10065",298512,YAFFE RUDEN & ASSOCIATES LLP,298512,466516,40.7652524,-73.9629801
400,"16 E 90TH ST STE 1B, New York, NY 10128",298515,YARBERRY ALLEN DR PATRI,298515,466525,40.7833742,-73.9573128
401,"310 E 72ND ST, New York, NY 10021",298520,SEVENTY SECOND ST MEDICAL ASSOCIATES,298520,466540,40.768399,-73.9579185
402,"141 E 63RD ST, New York, NY 10065",298521,FREIMAN JA MD,298521,466543,40.764757,-73.965815
403,"333 E 57TH ST, New York, NY 10022",298523,CENTER FOR INTERGRATIVE MED,298523,466549,40.7589111,-73.9638411
404,"263 W END AVE, New York, NY 10023",298524,DR MAURICE SZTEINBOK,298524,466552,40.7802357,-73.9846328
405,"48 E 81ST ST, New York, NY 10028",298526,OSHERANNETTE MD,298526,466559,40.7771064,-73.9604353
406,"520 EAST 72ND ST, New York, NY 10021",298527,BARRY KLYDE MD,1-1WCVQSZB,466557,40.766117,-73.9527438
407,"20 W 13TH ST, New York, NY 10011",298531,PFLUM FRANCIS MD,298531,466572,40.7356327,-73.9954573
408,"210 CANAL ST RM 203, New York, NY 10013",298532,CHE BI HOON MD,298532,466575,40.716974,-73.9989599
409,"20 PARK AVE, New York, NY 10016",298534,AST FREDERICK MD,298534,466581,40.7480512,-73.9811239
410,"79 E 79TH ST, New York, NY 10075",298535,GRUENSPAN HARRY MD,298535,466584,40.7761383,-73.9609884
411,"12 W 72ND ST, New York, NY 10023",299980,WEILL CORNELL MEDICAL ASSOCIATES,147226,470861,40.776434,-73.9771489
412,"41 MOTT ST FL 2, New York, NY 10013",300398,EDWARD V CHAN MD,300398,472100,40.71515,-73.999003
413,"345 E 37TH ST RM 305, New York, NY 10016",301887,MADISON BREAST IMAGING,301887,476601,40.7463691,-73.9731773
414,"635 MADISON AVE FL 16TH, New York, NY 10022",301892,MEDICAL IMAGING OF MANHATTAN LLC,306314,476620,40.7637152,-73.9709963
415,"75 PARK PL, New York, NY 10007",302162,MAXWELL PARTNERS LLC,302162,477440,40.7144626,-74.0109797
416,"159 E 74TH ST, New York, NY 10021",302692,HANNA JESIONOWSKA MD,302692,479046,40.7717114,-73.9605323
417,"325 WEST 15TH ST, New York, NY 10011",302755,BETH ISRAEL COMPREHENSIVE CANCER CENTER,296045,479232,40.7411653,-74.0033708
418,"59 E 54TH ST RM 63, New York, NY 10022",303333,RAUFA FAROQUI MD PC,303333,481001,40.7602037,-73.9728054
419,"50 E 77TH ST, New York, NY 10075",303757,AMALIA C KELLY & CRISTINA MATERA-ABOUZAHR PHYSICIANS PA,303757,482266,40.7746985,-73.962729
420,"120 E 34TH ST, New York, NY 10016",304423,MIDTOWN UROLOGICAL ASSOCIATES,304423,484220,40.7464441,-73.9802022
421,"1317 3RD AVE FL 4, New York, NY 10021",304724,MIRIAM LEVY-RAVITCH MD,301892,485147,40.7718646,-73.9586478
422,"425 E 68TH ST, New York, NY 10065",304751,MEMORIAL SLOAN KETTERING CANCER CENTER,1727201,485234,40.764881,-73.956424
423,"1107 5TH AVE, New York, NY 10128",304913,J VICTOR REYNIAK MD PC,304913,485733,40.7850227,-73.9575452
424,"604 2ND AVE, New York, NY 10016",304991,KINGS HWY RAD MGT LLC CO DOVE HEALTHCARE MGT INC,304991,1092349,40.7441079,-73.9759832
425,"38-44 EAST 30TH ST, New York, NY 10016",306587,MID-MANHATTAN PHYSICIAN,306587,490745,40.7445797,-73.9839001
426,"315 W 57TH ST, New York, NY 10019",306761,LILLIAN D NASH MD,306761,491265,40.7673801,-73.9837605
427,"55 E 9TH ST, New York, NY 10003",307863,UROLOGICAL ASSOC,307863,494568,40.7317415,-73.9927822
428,"25 CENTRAL PARK W, New York, NY 10023",309540,CYRUS A ASSADI MD PC,309540,499618,40.7702901,-73.9805456
429,"345 E 37TH ST RM 204, New York, NY 10016",309846,CORINTHIAN DIAG RADIOLOGY,309846,500524,40.7463691,-73.9731773
430,"944 PARK AVE, New York, NY 10028",311967,ALLIED MEDICAL MANAGEMENT CORP,311967,506809,40.7773877,-73.9597006
431,"101 AVENUE OF THE AMERICAS, New York, NY 10013",312945,LOCAL 32 BJ HEALTH CENTER,312945,509787,40.7234213,-74.0054532
432,"768 PARK AVE, New York, NY 10021",315352,ADAM ROMOFF & SUZANNE YALE MDS,315352,516847,40.7716168,-73.9637472
433,"333 E 30TH ST, New York, NY 10016",315355,KIPS BAY MEDICAL SERVICES INC,315355,516856,40.7419947,-73.9757191
434,"68 BAYARD ST, New York, NY 10013",315365,ROLAND NYEIN MD PC,315365,516883,40.7155808,-73.9980982
435,"1435 BROADWAY FL 4, New York, NY 10018",315388,LOCAL 400 MEMORIAL CLINIC,315388,516950,40.7546795,-73.9870291
436,"1126 PARK AVE, New York, NY 10128",315404,JONATHAN SCHER MD LLC,315404,517001,40.7830522,-73.9554838
437,"159 E 69TH ST, New York, NY 10021",315408,JONATHAN A KORN MD &,315408,517013,40.7682765,-73.9626394
438,"157 E 72ND ST, New York, NY 10021",315461,ROBERT W DILLON MD,315461,517170,40.7702246,-73.9610093
439,"945 FIFTH AVENUE, New York, NY 10021",315506,ROSENBAUM SILVERSTONE &,315506,517314,40.7747752,-73.9648993
440,"150 PARK ROW, New York, NY 10007",315507,METROPOLITAN CORRECTIONAL CTR,315507,517313,40.7131294,-74.001505
441,"114 E 90TH ST, New York, NY 10128",316152,LEONARD BIEL JR MD,316152,520147,40.7821142,-73.9544199
442,"21 E 90TH ST, New York, NY 10128",316195,JAY BAUMAN  MD,316195,1590881,40.7836624,-73.9571582
443,"416 E 55TH ST, New York, NY 10022",316677,MRSI MANAGEMENT INC,316677,521807,40.7562601,-73.9629144
444,"1 POLICE PLAZA - ROOM 1016, New York, NY 10038",318042,NYC POLICE HEADQUARTERS,318042,568881,40.7120557,-74.0023773
445,"1140 YORK AVE OFC P1, New York, NY 10065",318043,CLEMENT M BARONE MD PC,318043,568882,40.7612953,-73.9578005
446,"1160 PARK AVE, New York, NY 10128",318044,JAFFIN MOSS CHERRY MD PC,146362,568890,40.7843039,-73.9547643
447,"1045 PARK AVE, New York, NY 10028",318047,BARBARA EDELSTEIN MD,318047,568896,40.7802712,-73.9567847
448,"875 PARK AVE, New York, NY 10075",318054,WAYNE DECKER MD,318054,568923,40.7745604,-73.9609134
449,"510 E 62ND ST, New York, NY 10065",318063,ANIMAL MEDICAL CENTER,318063,568954,40.7601478,-73.9579786
450,"125 E 72ND ST, New York, NY 10021",318072,ISADORE ROSENFELD M D,318072,568982,40.7707802,-73.9622031
451,"260 E 67TH ST, New York, NY 10065",318073,RENEE SOLOW MD,318073,568987,40.7655494,-73.9611052
452,"338 E 30 ST, New York, NY 10016",318074,CHARLES H DEBROVNER MD PC,318074,568989,40.7413875,-73.9762191
453,"55 EAST 34TH STREET, New York, NY 10016",318075,PREVENTIVE MEDICINE INSTITUTE,318075,568991,40.747627,-73.9817633
454,"550 1ST AVE, New York, NY 10016",318083,NEW YORK UNIVERSITY LANGONE MEDICAL CENTER,1684240,1586370,40.7421182,-73.9739578
455,"660 1ST AVE, New York, NY 10016",318083,NEW YORK UNIVERSITY LANGONE MEDICAL CENTER,1684240,2241713,40.7459598,-73.971583
456,"31ST & E RIVER DR 6FL RM 6F, New York, NY 10016",318083,NEW YORK UNIVERSITY LANGONE MEDICAL CENTER,1802866,1776928,33.200597,-91.6543178
457,"535 E 70TH ST, New York, NY 10021",319222,HOSPITAL FOR SPECIAL SURGERY,319222,572530,40.7649072,-73.9523764
458,"622 W 168TH ST-PH1630, New York, NY 10032",343010,TRUSTEES OF COLUMBIA UNIVERSITY,916025,643348,40.8413739,-73.9410698
459,"1111 AMSTERDAM AVE, New York, NY 10025",343187,MOUNT SINAI ST LUKES,145910,643706,40.8055483,-73.9613152
460,"114TH ST & AMSTERDAM AVE, New York, NY 10025",343187,MOUNT SINAI ST LUKES,145910,1943053,40.6844169,-73.8280149
461,"115TH ST & AMSTERDAM AVE, New York, NY 10025",343187,MOUNT SINAI ST LUKES,157162,1943055,40.7879058,-73.8524949
462,"425 E 61ST ST FL 6, New York, NY 10065",343302,NEW YORK CARDIOLOGY ASSOCIATES PC,343302,2003632,40.7606262,-73.9591725
463,"222 E 68TH ST, New York, NY 10065",343345,LICHY & KOLB MDS,343345,644125,40.7666558,-73.9617554
464,"133 E 58TH ST STE 301, New York, NY 10022",345033,JAMES A BLAKE MD,345033,1773164,40.7619525,-73.9689326
465,"133 E 58TH STE STE 301, New York, NY 10022",345033,JAMES A BLAKE MD,345033,648935,40.7619525,-73.9689326
466,"134 E 93RD ST, New York, NY 10128",405278,EASTSIDE WOMENS OB GYN,405278,712582,40.7839082,-73.9526021
467,"1015 MADISON AVE RM 302, New York, NY 10075",414753,REGINALD PUCKETT MD,414753,715316,40.775782,-73.962111
468,"425 E 61 ST, New York, NY 10021",434337,NEW YORK PRESBYTERIAN WEILL CORNELL MEDICAL CENTER,296043,725498,40.7606262,-73.9591725
469,"241 E 86TH ST APT 2D, New York, NY 10128",438844,MOUNT SINAI ASSOCIATES IN INTERNAL MEDICINE,438844,1685990,40.778342,-73.952308
470,"315 W 57TH ST STE LL4, New York, NY 10019",460846,PARK WEST RADIOLOGY,306314,1598995,40.7673801,-73.9837605
471,"19 BEEKMAN ST FL 3, New York, NY 10038",465695,SEAPORT ORTHOPAEDIC ASSOCIATES,465695,1779229,40.710739,-74.006303
472,"304 PARK AVE S FL 6, New York, NY 10010",473669,PATH MEDICAL PC,473669,1731737,40.7401583,-73.9869664
473,"205 E 64TH ST, New York, NY 10065",479400,MEMORIAL SLOAN KETTERING IRIS CANTOR DIAGNOSTIC CENTER,306314,1079637,40.7645878,-73.9634965
474,"525 PARK AVE, New York, NY 10021",479824,PARK AVENUE RADIOLOGISTS,306314,5325515,40.7638134,-73.9687005
475,"400 E 34TH ST, New York, NY 10016",483015,RUSK INSTITUTE OF REHABILITATION MEDICINE,483015,783254,40.7431146,-73.9730823
476,"160 E 53RD ST, New York, NY 10022",523436,MEMORIAL SLOAN KETTERING CANCER CENTER ROCKERFELLER OUTPATIENT PAVILION,1727201,805493,40.7575768,-73.970062
477,"160 7TH AVE S, New York, NY 10014",528195,GATTEREAU & EDWARDS MD PC,528195,807410,40.7354663,-74.0020031
478,"461 PARK AVE S, New York, NY 10016",532983,ELM UROLOGY ASSOCIATES PC,532983,809388,40.7451963,-73.9823169
479,"1300 YORK AVE, New York, NY 10065",545285,WEILL MEDICAL COLLEGE OF CORNELL UNIVERSITY,147226,1584881,40.764991,-73.95479
480,"520 1ST AVE, New York, NY 10016",546405,NEW YORK MED EXAMINERS OFFICE,546405,816652,40.7412595,-73.9746112
481,"62 CROSBY ST, New York, NY 10012",607378,RICHARD M WIND MD,607378,844922,40.7223524,-73.9984749
482,"516 E 72ND ST, New York, NY 10021",609220,CITIGROUP BIOMEDICAL IMAGING CENTER AT WEILL CORNELL MEDICAL COLLEGE,409033,845707,40.7663105,-73.9530193
483,"16 EAST 60TH STREET, New York, NY 10022",623211,COLUMBIA PRESBYTERIAN,623211,850302,40.7642428,-73.9713743
484,"140 4TH AVE, New York, NY 10003",630591,PARK SOUTH IMAGING HOLDINGS LP,630591,884052,40.7337304,-73.9900339
485,"627 W 165TH ST, New York, NY 10032",636286,NEW YORK & PRESBYTERIAN HOSPITAL,296043,901302,40.8401438,-73.9423739
486,"171 E 84TH ST, New York, NY 10028",652745,NOVICK IMAGING ENTERPRISES LLC,652745,866095,40.7778496,-73.9553043
487,"307 E 63RD ST, New York, NY 10065",654633,INNER IMAGING LLC,654633,866875,40.7629757,-73.961721
488,"635 MEDICINE AVE, New York, NY 10022",655986,REPRODUCTIVE MEDICINE OF NEW YORK,655986,867422,40.7637152,-73.9709963
489,"35 E 85TH ST, New York, NY 10128",658398,MARATHON MEDICAL PC,145729,1427297,40.7800902,-73.9589208
490,"534 W 135TH ST FRNT 2, New York, NY 10031",666870,CHARLES RANGEL COMMUNITY HEALTH CENTER,666870,871041,40.8196065,-73.954697
491,"380 2ND AVE RM 303, New York, NY 10010",671485,PAUL J BETSCHART DPM PC,671485,872996,40.7369813,-73.9813485
492,"475 E 72ND ST, New York, NY 10021",681088,RICHARD STERN MD,681088,876277,40.7674573,-73.9540295
493,"1425 MADISON AVE, New York, NY 10029",682866,MOUNT SINAI HOSPITAL,409033,876848,40.7886376,-73.9524223
494,"425 E 61TH ST, New York, NY 10065",685231,WEILL MEDICAL COLLEGE OF CORNELL UNIVERSITY,296043,877410,40.7606262,-73.9591725
495,"232 SHERMAN AVE, New York, NY 10034",688284,BIALINES A ESPINOSA MD,688284,878253,40.8661402,-73.9199539
496,"7 IRVING PLACE, New York, NY 10003",696678,PHILLIPS AMBULATORY CARE CENTER,696678,880731,40.7342396,-73.9885767
497,"530 1ST AVE, New York, NY 10016",698214,NEW YORK UNIVERSITY LANGONE MEDICAL CENTER,1-1NFW5,887806,40.7413995,-73.9744151
498,"210 CENTRAL PARK S, New York, NY 10019",701973,OLIVIA LEMEND MD,701973,886683,40.7669838,-73.9800186
499,"306 W 106TH ST, New York, NY 10025",705819,KEVIN L MARTIN MD,705819,1659397,40.80165,-73.969325
500,"510 E 70TH ST 4TH FLR RM K415, New York, NY 10021",713855,ARTHRITIS MEDICAL CENTER OF THE CENTRAL COAST,713855,1760378,40.765131,-73.9541762
501,"21 E 69TH ST, New York, NY 10021",727774,CENTER FOR HUMAN REPRODUCTION,727774,893603,40.7698324,-73.9663243
502,"328 E 75TH ST, New York, NY 10021",728130,UNIVERSAL IMAGING DIAG GRP LLC,728130,893849,40.769891,-73.9554071
503,"225 PARK AVE S, New York, NY 10003",731513,PORT AUTHORITY OF NY & NJ,731513,895410,40.7371329,-73.9879502
504,"158 E 84TH ST, New York, NY 10028",737072,PARK EAST CARDIOVASCULAR,1017979,1091846,40.7775805,-73.9556234
505,"645 10TH AVE, New York, NY 10036",750305,RYAN CHELSEA CLINTON COMMUNITY HEATLH CENTER,750305,935951,40.7620225,-73.9941366
506,"286 FT WASHINGTON AVE STE 1A, New York, NY 10032",756281,WASHINGTON HEIGHTS UROLOGY PC,756281,1729128,40.8447149,-73.9404367
507,"280 HENRY ST, New York, NY 10002",761802,BETANCES HEALTH CENTER,761802,936187,40.7135701,-73.9836457
508,"791 PARK AVE, New York, NY 10021",777029,PHILIP WEINTRAUB MD,777029,936723,40.7720886,-73.9627652
509,"254 CANAL ST RM 3001, New York, NY 10013",783703,MARCUS LOO MD,783703,1657740,40.7183811,-74.0009541
510,"955 PARK AVE, New York, NY 10028",783705,PETER SAILON MD,783705,940833,40.7772381,-73.95892
511,"205 E 78TH ST, New York, NY 10075",784186,JANUSZ PLAWNER MD,784186,941208,40.7735677,-73.9574003
512,"317 E 34TH ST, New York, NY 10016",794408,ROY G GERONEMUS MD PC,794408,954117,40.7446882,-73.9749319
513,"4 E 95TH ST, New York, NY 10128",822670,JILL FISHBANE-MAYER MD,822670,979179,40.7868163,-73.9557515
514,"160 E 32ND ST STE 101, New York, NY 10016",843792,NEW YORK METROPOLITAN LITHOTRIPTOR ASSOCIATES PC,843792,1010284,40.7446827,-73.9800115
515,"144 4TH AVE, New York, NY 10003",843873,UNION SQUARE DIAGNOSTIC IMAGING,306314,1548648,40.7338318,-73.9900818
516,"1021 PARK AVE, New York, NY 10028",844416,CARMINE PETRACCA,844416,1011717,40.7794718,-73.9572669
517,"67 IRVING PL FL 8, New York, NY 10003",870769,DAVID S FELDMAN MD PC,870769,1069179,40.736696,-73.9870203
518,"150 E 32ND ST FL 2, New York, NY 10016",873908,NEW YORK UNIVERSITY,698214,1070242,40.7448166,-73.9804195
519,"123 W 86TH ST, New York, NY 10024",887482,ELLEN BLYE & ELLIOT J ARONS MDS PC,887482,1082149,40.7870704,-73.9729362
520,"1045 5TH AVE, New York, NY 10028",887496,SAMI S DAVID MD,887496,1084628,40.7811743,-73.9604209
521,"121 E 60TH ST, New York, NY 10022",887627,ROBERT L BARD MD PC,887627,1098701,40.7632531,-73.9682872
522,"115 E 86TH ST, New York, NY 10028",898482,JEFFREY H GRAF MD,898482,1287827,40.7800255,-73.9561419
523,"125 EAST 63RD ST, New York, NY 10065",904006,NARGESS AHGHARIAN MD & ELLEN MANOS MD,904006,1350032,40.7651694,-73.9667031
524,"320 E 15TH ST, New York, NY 10003",909004,STRANG CLINIC,909004,1100941,40.7324833,-73.9836626
525,"61 E 86TH ST, New York, NY 10028",939926,JOAN BERMAN & SHARON DIAMOND MDS,939926,1326878,40.7807591,-73.9579098
526,"128 MOTT ST STE 701, New York, NY 10013",940786,WINDSOR TING MD,940786,1392309,40.7185156,-73.996455
527,"207 E 57TH ST APT 17B, New York, NY 10022",960740,ROBERT SEGAL MD,960740,1817196,40.7602341,-73.9670198
528,"161 MADISON AVE RM 4SW, New York, NY 10016",966721,MIDTOWN REPRODUCTIVE MED PC,1136512,1240612,40.7467518,-73.9833473
529,"488 MADISON AVE FL 1220, New York, NY 10022",968960,SCHAFFER SCHONHOLZ & DROSSMAN LLP,297866,2589828,40.7589074,-73.9752997
530,"930 5TH AVE, New York, NY 10021",978126,RADOSLAV JOVANOVIC MD LLC,978126,1430637,40.7738274,-73.9658238
531,"251 E 33RD ST  5TH FL, New York, NY 10016",978519,MARGARET NACHTIGALL MD,978519,1494812,40.7444555,-73.9766898
532,"220 W 72ND ST, New York, NY 10023",1047951,CITY VETERINARY CARE,1047951,1371882,40.7788693,-73.9828882
533,"700 W 180TH ST, New York, NY 10033",1064040,MARIO B CASTILLO MD,1064040,1515106,40.8495657,-73.9369327
534,"425 5TH AVE FL 4, New York, NY 10016",1070451,COMPREHENSIVE HEALTHCARE,1070451,1653168,40.751034,-73.9822454
535,"217 GRAND STREET, New York, NY 10013",1119913,KENNETH TAM MD,1119913,1429406,40.7186792,-73.9961107
536,"14 W 23RD ST, New York, NY 10010",1345777,KIMA CENTER,1345777,1619194,40.7415725,-73.9903719
537,"110 E 59TH ST RM 9B, New York, NY 10022",1387580,MARK L MEYER MD PLLC,1017979,1843506,40.7623427,-73.9694002
538,"106 E 76TH ST, New York, NY 10021",145447,LENOX HILL HOSPITAL,1017979,1875169,40.7732977,-73.9615841
539,"107 E 76TH STREET, New York, NY 10021",145447,LENOX HILL HOSPITAL,145447,535276,40.7735763,-73.9614229
540,"215 W 125TH ST, New York, NY 10027",145837,NYC HEALTH & HOSPITALS CORP,145837,542492,40.8096896,-73.9488864
541,"45 E 85TH ST, New York, NY 10028",146245,OB-GYN ASSOCIATES,146245,564991,40.7799271,-73.9581623
542,"885 PARK AVE, New York, NY 10021",146328,AUSTIN ABRAMSON MD,146328,882382,40.7750092,-73.9605093
543,"726 BROADWAY, 2ND FL STE 221, New York, NY 10003",146371,NYU HOSPITALS CENTER,318083,534307,40.7293173,-73.9932046
544,"177 FT WASHINGTON AVE, New York, NY 10032",146642,COLUMBIA UNIVERSITY,146642,535251,40.8415651,-73.9430332
545,"506 LENNOX AVE, New York, NY 10037",146809,HARLEM HOSPITAL CENTER,146809,535240,40.8141114,-73.939827
546,"101 MADISON AND FIFTH AVE, New York, NY 10029",147009,MOUNT SINAI HOSPITAL,1-1NFW5,1375323,40.8171779,-73.9344679
547,"7 DIVISION 2ND FLOOR, New York, NY 10002",147063,CYNTHIA WU  MD,1-1WCVQSZB,525751,40.713911,-73.9970748
548,"16 EAST 60TH STREET SUITE 321, New York, NY 10021",147097,COLUMBIA UNIVERSITY IN THE CITY OF NEW YORK,147097,1336324,40.7642428,-73.9713743
549,"161 FORT WASHINGTON AVENUE, New York, NY 10032",147097,COLUMBIA UNIVERSITY IN THE CITY OF NEW YORK,147097,564938,40.8408017,-73.9433196
550,"3959 BROADWAY BHS-ROOM 1-115, New York, NY 10032",147097,COLUMBIA UNIVERSITY IN THE CITY OF NEW YORK,147097,564934,40.7799459,-73.9812721
551,"215 EAST 95TH STREET, New York, NY 10128",147176,NEW YORK UNIV,386546,533111,40.7844236,-73.9485762
552,"425 E 61ST ST, New York, NY 10021",147226,WEILL MEDICAL COLLEGE OF CORNELL UNIVERSITY,147226,904105,40.7606262,-73.9591725
553,"1305 YORK AVE 6TH FL, New York, NY 10021",147226,WEILL MEDICAL COLLEGE OF CORNELL UNIVERSITY,685231,1542674,40.7655912,-73.9551881
554,"16 EAST 16TH STREET, New York, NY 10003",147365,SIDNEY HILLMAN HEALTH CENTER,147365,541681,40.7367625,-73.9918868
555,"630 W 168TH STREET, New York, NY 10032",157164,TRUSTEES OF COLUMBIA UNIVERSITY IN THE CITY OF NEW YORK,1-1WCVQSZB,930484,40.8409549,-73.941459
556,"101 1ST ST (5TH AND MADISON), New York, NY 10029",203566,MOUNT SINAI HOSPITAL,1018587,711296,40.7909313,-73.9527082
557,"1470 MADISON AVENUE, New York, NY 10029",203566,MOUNT SINAI HOSPITAL,145729,708677,40.7908768,-73.9519951
558,"101ST ST BETWEEN MADISON & 5TH, New York, NY 10029",203566,MOUNT SINAI HOSPITAL,145729,535192,40.79031,-73.9521
559,"5 E 102ND ST, New York, NY 10029",203566,MOUNT SINAI HOSPITAL,203566,1595480,40.791484,-73.9520122
560,"155 CANAL ST, New York, NY 10013",290627,CP ADVANCED IMAGING PLLC,290627,1717909,40.7165585,-73.9962714
561,"519 E 72ND STREET, New York, NY 10021",293306,EAST RIVER MEDICAL IMAGING PC,1720547,638604,40.7667349,-73.9526466
562,"3 EAST 75TH STREET, New York, NY 10021",293306,EAST RIVER MEDICAL IMAGING PC,1720547,1276423,40.7743448,-73.9648893
563,"7 W 34TH ST, New York, NY 10001",295990,HIP HEALTH PLAN OF NEW YORK,295990,458044,40.7490165,-73.9852986
564,"170 W 12TH STREET, New York, NY 10011",296041,ST VINCENTS HOSPITAL,296041,1263163,40.7367856,-74.000036
565,"170 W 12TH ST, New York, NY 10011",296041,ST VINCENTS HOSPITAL,296041,1262084,40.7367856,-74.000036
566,"411 E 67TH STREET, New York, NY 10021",296042,MEMORIAL SLOAN KETTERING CANCER CENTER,1727201,458278,40.7645597,-73.9579285
567,"410 E 68TH STREET, New York, NY 10021",296042,MEMORIAL SLOAN KETTERING CANCER CENTER,296042,458282,40.7647864,-73.957124
568,"435 EAST 67TH STREET, New York, NY 10021",296042,MEMORIAL SLOAN KETTERING CANCER CENTER,296042,458279,40.7643195,-73.9571928
569,"622 WEST 168TH STREET, New York, NY 10032",296043,NEW YORK PRESBYTERIAN WEILL CORNELL MEDICAL CENTER,1790489,1437894,40.841311,-73.94067
570,"710 W 168TH ST NI-10, New York, NY 10032",296043,NEW YORK PRESBYTERIAN WEILL CORNELL MEDICAL CENTER,2065844,1858670,40.8421711,-73.9429382
571,"177 FORT WASHINGTON AVE, New York, NY 10022",296043,NEW YORK PRESBYTERIAN WEILL CORNELL MEDICAL CENTER,296043,726480,40.8415651,-73.9430332
572,"88TH ST & EAST END AVE, New York, NY 10128",296045,MOUNT SINAI BETH ISRAEL,296045,458319,40.8112109,-74.0112358
573,"237 EAST 20TH STREET, New York, NY 10003",298529,EDWARD MERKER MD,298529,466566,40.7363988,-73.9827504
574,"115 E 86TH, New York, NY 10028",301362,NEW YORK CARDIAC DIAGNOSTIC,301362,475016,40.7800255,-73.9561419
575,"32 WEST 18TH ST 5TH FL, New York, NY 10011",302390,DANIEL CLEMENT MD PC,302390,478113,40.7390659,-73.9937922
576,"660 FIRST AVE 5TH FL RM 500, New York, NY 10016",302516,NY UNIV SCHOOL OF MEDICINE,850655,478498,40.7459598,-73.971583
577,"1016 FIFTH AVENUE, New York, NY 10028",305675,M FATEH & K SULTAN MDS PC,305675,488016,40.7793023,-73.9615353
578,"23 WALL STREET, New York, NY 10260",308969,MORGAN TRUST,308969,497888,40.706795,-74.0104803
579,"2 MOTT STREET, New York, NY 10013",310746,EDWARD K MOK MD,310746,503168,40.7138425,-73.998498
580,"425 W 59TH STREET SUITE 60, New York, NY 10019",310961,WEST SIDE RADIOLOGY ASSOCIATES PC,310961,503808,40.7700721,-73.9858725
581,"1790 BROADWAY SUITE 1100, New York, NY 10019",310961,WEST SIDE RADIOLOGY ASSOCIATES PC,310961,706515,40.7667856,-73.9813879
582,"945 FIFTH AVE, New York, NY 10021",315506,ROSENBAUM SILVERSTONE &,315506,517316,40.7747752,-73.9648993
583,"726 BROADWAY FL 2, New York, NY 10003",318083,NEW YORK UNIVERSITY LANGONE MEDICAL CENTER,290003,1634923,40.7293173,-73.9932046
584,"125 WORTH STREET, New York, NY 10013",318084,NEW YORK CITY HEALTH & HOSPITALS,318084,569018,40.7157444,-74.002515
585,"123 LAFAYETTE ST - 6TH FLOOR, New York, NY 10013",334130,SINOG MEDICAL ASSOCIATES PC,1732991,623672,40.7186627,-74.0000414
586,"225 E 64TH STREET, New York, NY 10021",343209,RONALD D BLATT MD PC,343209,643756,40.7642745,-73.9628016
587,"1070 PARK AVE STE 1A, New York, NY 10128",539029,MIKLOS TOTH MD,539029,812673,40.7814545,-73.9569684
588,"139 E STREET, New York, NY 10016",717440,LEXINGTON VET GROUP,717440,889408,40.7460842,-73.9804977
589,"622 WEST 168TH ST, New York, NY 10032",725409,COLUMBIA UNIVERSITY,1092643,892521,40.841311,-73.94067
590,"1150 ST NICHOLS AVE, New York, NY 10032",731096,MOLECULAR GENETICS,731096,895237,40.8406148,-73.9392427
591,"301 E 55TH ST, New York, NY 10022",733150,MEMORIAL SLOAN KETTERING CANCER CENTER DISTRIBUTION CENTER,296042,1403718,40.7580242,-73.9653497
592,"109 EAST 38TH STREET, New York, NY 10016",783704,JACOB HEYMAN MD PC,1-1NFW5,940831,40.7493932,-73.9785723
593,"445 W 58TH ST, New York, NY 10019",845978,ST LUKES ROOSEVELT,343187,1012756,40.7692822,-73.9865679
594,"31ST ST AND EAST RIVER DR, New York, NY 10016",850655,NEWYORK PRESBYTERIAN BROOKLYN METHODIST HOSPITAL,1684240,1626480,40.7457903,-73.983508
595,"123 LAFAYETTE ST  6TH FLOOR, New York, NY 10013",898589,MANSY CORPORATION,898589,1097372,40.7186627,-74.0000414
596,"650 FIRST AVENUE, New York, NY 10016",917586,MURRAY HILLS RADIOLOGY & MAMMOGRAPHY PC,306314,1264686,40.7457608,-73.971586
597,"271 AVE C APT 6G, New York, NY 10009",949356,JOCELYN GREENIDGE MD,1-1WCVQSZB,1221126,40.7297381,-73.9752664
598,"623 W 207TH ST OFC 12, New York, NY 10034",992809,FOX MEDICAL PC,992809,1793606,40.868251,-73.921196
